[ 
  {
    "name": "Bean Vegan Cuisine",
    "street": "3001 E Independence Boulevard",
    "city": "Charlotte",
    "state": "NC",
    "zip": "28205",
    "phone": "(980) 939-1234",
    "url": "http://www.eatatbean.com/",
    "pos": {"lat": 35.2046553,"lng": -80.7926973}
  },
  {
    "name": "Madras Cafe",
    "street": "3130 Driwood Ct",
    "city": "Charlotte",
    "state": "NC",
    "zip": "28269",
    "phone": "(980) 237-1947",
    "url": "http://www.madrascafecharlotte.com/",
    "pos": {"lat": 35.3425877,"lng": -80.7709506}
  },
  {
    "name": "Living Kitchen",
    "street": "South Boulevard #300",
    "city": "Charlotte",
    "state": "NC",
    "zip": "28203",
    "phone": "(704) 333-0008",
    "url": "http://www.livingkitchen.com/",
    "pos": {"lat": 35.20922317,"lng": -80.8611272}
  },
  {
    "name": "The Pickled Peach",
    "street": "202 S Main St",
    "city": "Davidson",
    "state": "NC",
    "zip": "28036",
    "phone": "(704) 765-2190",
    "url": "http://www.thepickledpeach.com/",
    "pos": {"lat": 35.4983278,"lng": -80.8493854}
  },
  {
    "name": "The Gateway to Athens",
    "street": "360 Exchange St NW 107",
    "city": "Concord",
    "state": "NC",
    "zip": "28027",
    "phone": "(704) 788-2174",
    "url": "http://www.thegatewaytoathens.com/",
    "pos": {"lat": 35.4158734,"lng": -80.6692677}
  },
  {
    "name": "Cold Stone Creamery",
    "street": "8111 Concord Mills Boulevard Ste 743",
    "city": "Concord",
    "state": "NC",
    "zip": "28027",
    "phone": "(704) 979-5061",
    "url": "http://www.coldstonecreamery.com/",
    "pos": {"lat": 35.3703917,"lng": -80.7256578}
  },
  {
    "name": "Whit's Frozen Custard",
    "street": "428 S Main St",
    "city": "Davidson",
    "state": "NC",
    "zip": "28036",
    "phone": "(980) 231-5365",
    "url": "http://www.whitsdavidson.com/",
    "pos": {"lat": 35.4959603,"lng": -80.8535127}
  },
  {
    "name": "Ben & Jerry's",
    "street": "202 South Main Street",
    "city": "Davidson",
    "state": "NC",
    "zip": "28036",
    "phone": "(704) 892-0604",
    "url": "http://www.benjerry.com/",
    "pos": {"lat": 35.4984705,"lng": -80.8495336}
  },
  {
    "name": "Carolina Cones",
    "street": "20801 North Main Street",
    "city": "Davidson",
    "state": "NC",
    "zip": "28031",
    "phone": "(704) 892-8190",
    "url": "",
    "pos": {"lat":35.343776,"lng": -80.840595}
  },
  {
    "name": "Soda Shop",
    "street": "104 S Main St",
    "city": "Davidson",
    "state": "NC",
    "zip": "28036",
    "phone": "(704) 896-7743",
    "url": "http://www.davidsonsodashop.com/",
    "pos": {"lat":35.4990,"lng": 80.8489}
  },
  {
    "name": "Davidson Chocolate Co.",
    "street": "610 Jetton Street #150",
    "city": "Davidson",
    "state": "NC",
    "zip": "28036",
    "phone": "(704) 896-7245",
    "url": "http://www.davisonchocolate.com/",
    "pos": {"lat":35.478110,"lng":-80.819501}
  },
  {
    "name": "Baskin-Robbins",
    "street": "19921 Zion Ave. C-1",
    "city": "Cornelius",
    "state": "NC",
    "zip": "28031",
    "phone": "(980) 231-5764",
    "url": "http://www.baskinrobbins.com/",
    "pos": {"lat":35.475080,"lng":-80.853208}
  },
  {
    "name": "Two Scoops Creamery LKN",
    "street": "119 Landings Drive Suite 104",
    "city": "Mooresville",
    "state": "NC",
    "zip": "28117",
    "phone": "(980) 444-3800",
    "url": "http://www.twoscoopscreamery.com/",
    "pos": {"lat":35.221905,"lng":-90.822442}
  }
]
